[
  {
    "hospitalId": 1637,
    "name": "Banner Urgent Care",
    "latitude": 33.3933441,
    "longitude": -111.7187511,
    "location": {
      "type": "Point",
      "coordinates": [ -111.7187511, 33.3933441 ]
    },
    "crossStreetPrimary": "Higley",
    "crossStreetSecondary": "Southern",
    "street": "1215 S Higley Rd",
    "city": "Mesa",
    "state": "AZ",
    "zip": "85206",
    "timeOpenToday": "2017-12-04T08:00:00",
    "timeCloseToday": "2017-12-04T21:00:00",
    "phoneNumber": "4808275740",
    "currentWaitRangeLow": 0,
    "currentWaitRangeHigh": 15,
    "imageUrl": "https://www.bannerhealth.com/-/media/images/modules/locations/urgent-care/bannerurgentcaremesahigleysouthern.jpg",
    "website": "https://www.bannerhealth.com/locations/mesa/banner-urgent-care-5"
  },
  {
    "hospitalId": 1638,
    "name": "Banner Urgent Care",
    "latitude": 33.3952746,
    "longitude": -111.6328409,
    "location": {
      "type": "Point",
      "coordinates": [ -111.6328409, 33.3952746 ]
    },
    "crossStreetPrimary": "Crismon",
    "crossStreetSecondary": "Southern",
    "street": "1157 S Crismon",
    "city": "Mesa",
    "state": "AZ",
    "zip": "85208",
    "timeOpenToday": "2017-12-04T08:00:00",
    "timeCloseToday": "2017-12-04T21:00:00",
    "phoneNumber": "4808275730",
    "currentWaitRangeLow": 153,
    "currentWaitRangeHigh": 168,
    "imageUrl": "https://www.bannerhealth.com/-/media/images/modules/locations/urgent-care/bannerurgentcaremesacrismon.jpg",
    "website": "https://www.bannerhealth.com/locations/mesa/banner-urgent-care-2"
  },
  {
    "hospitalId": 1663,
    "name": "Banner Urgent Care",
    "latitude": 33.3804648,
    "longitude": -111.7228761,
    "location": {
      "type": "Point",
      "coordinates": [ -111.7228761, 33.3804648 ]
    },
    "crossStreetPrimary": "Higley",
    "crossStreetSecondary": "Baseline",
    "street": "1660 N Higley Rd Suite 104",
    "city": "Gilbert",
    "state": "AZ",
    "zip": "85234",
    "timeOpenToday": "2017-12-04T08:00:00",
    "timeCloseToday": "2017-12-04T21:00:00",
    "phoneNumber": "4808275600",
    "currentWaitRangeLow": 29,
    "currentWaitRangeHigh": 44,
    "imageUrl": "https://www.bannerhealth.com/-/media/images/modules/locations/urgent-care/bannerurgentcaregilberthigleybaseline.jpg",
    "website": "https://www.bannerhealth.com/locations/gilbert/banner-urgent-care-84000"
  },
  {
    "hospitalId": 1636,
    "name": "Banner Urgent Care",
    "latitude": 33.4230528,
    "longitude": -111.770631,
    "location": {
      "type": "Point",
      "coordinates": [ -111.770631, 33.4230528 ]
    },
    "crossStreetPrimary": "Lindsay",
    "crossStreetSecondary": "University",
    "street": "407 N Lindsay Rd Suite 103",
    "city": "Mesa",
    "state": "AZ",
    "zip": "85213",
    "timeOpenToday": "2017-12-04T08:00:00",
    "timeCloseToday": "2017-12-04T21:00:00",
    "phoneNumber": "4808275710",
    "currentWaitRangeLow": 0,
    "currentWaitRangeHigh": 15,
    "imageUrl": "https://www.bannerhealth.com/-/media/images/modules/locations/urgent-care/bannerurgentcaremesalindsay.jpg",
    "website": "https://www.bannerhealth.com/locations/mesa/banner-urgent-care-8"
  },
  {
    "hospitalId": 1652,
    "name": "Banner Urgent Care",
    "latitude": 33.3423936,
    "longitude": -111.7213694,
    "location": {
      "type": "Point",
      "coordinates": [ -111.7213694, 33.3423936 ]
    },
    "crossStreetPrimary": "Higley",
    "crossStreetSecondary": "Pecos",
    "street": "3126 S Higley Rd",
    "city": "Gilbert",
    "state": "AZ",
    "zip": "85296",
    "timeOpenToday": "2017-12-04T08:00:00",
    "timeCloseToday": "2017-12-04T21:00:00",
    "phoneNumber": "4808275780",
    "currentWaitRangeLow": 0,
    "currentWaitRangeHigh": 15,
    "imageUrl": "https://www.bannerhealth.com/-/media/images/modules/locations/urgent-care/bannerurgentcaregilberthigleypecos.jpg",
    "website": "https://www.bannerhealth.com/locations/gilbert/banner-urgent-care-4"
  },
  {
    "hospitalId": 1651,
    "name": "Banner Urgent Care",
    "latitude": 33.394752,
    "longitude": -111.788672,
    "location": {
      "type": "Point",
      "coordinates": [ -111.788672, 33.394752 ]
    },
    "crossStreetPrimary": "Gilbert",
    "crossStreetSecondary": "Southern",
    "street": "1120 S Gilbert Rd",
    "city": "Mesa",
    "state": "AZ",
    "zip": "85204",
    "timeOpenToday": "2017-12-04T08:00:00",
    "timeCloseToday": "2017-12-04T21:00:00",
    "phoneNumber": "4808275720",
    "currentWaitRangeLow": 9,
    "currentWaitRangeHigh": 24,
    "imageUrl": "https://www.bannerhealth.com/-/media/images/modules/locations/urgent-care/bannerurgentcaremesagilbert.jpg",
    "website": "https://www.bannerhealth.com/locations/mesa/banner-urgent-care-1"
  },
  {
    "hospitalId": 1650,
    "name": "Banner Urgent Care",
    "latitude": 33.36424,
    "longitude": -111.7547106,
    "location": {
      "type": "Point",
      "coordinates": [ -111.7547106, 33.36424 ]
    },
    "crossStreetPrimary": "Val Vista",
    "crossStreetSecondary": "Guadalupe",
    "street": "1641 E Guadalupe Rd",
    "city": "Gilbert",
    "state": "AZ",
    "zip": "85234",
    "timeOpenToday": "2017-12-04T08:00:00",
    "timeCloseToday": "2017-12-04T21:00:00",
    "phoneNumber": "4808275670",
    "currentWaitRangeLow": 29,
    "currentWaitRangeHigh": 44,
    "imageUrl": "https://www.bannerhealth.com/-/media/images/modules/locations/urgent-care/bannerurgentcaregilbertguadalupe.jpg",
    "website": "https://www.bannerhealth.com/locations/gilbert/banner-urgent-care-2"
  },
  {
    "hospitalId": 1653,
    "name": "Banner Urgent Care",
    "latitude": 33.3259815,
    "longitude": -111.720525,
    "location": {
      "type": "Point",
      "coordinates": [ -111.720525, 33.3259815 ]
    },
    "crossStreetPrimary": "Higley",
    "crossStreetSecondary": "Ray",
    "street": "1355 S. Higley Rd #104",
    "city": "Gilbert",
    "state": "AZ",
    "zip": "85296",
    "timeOpenToday": "2017-12-04T08:00:00",
    "timeCloseToday": "2017-12-04T21:00:00",
    "phoneNumber": "4808275770",
    "currentWaitRangeLow": 0,
    "currentWaitRangeHigh": 15,
    "imageUrl": "https://www.bannerhealth.com/-/media/images/modules/locations/urgent-care/bannerurgentcaregilberthigleyray.jpg",
    "website": "https://www.bannerhealth.com/locations/gilbert/banner-urgent-care"
  },
  {
    "hospitalId": 1662,
    "name": "Banner Urgent Care",
    "latitude": 33.4520909,
    "longitude": -111.7895164,
    "location": {
      "type": "Point",
      "coordinates": [ -111.7895164, 33.4520909 ]
    },
    "crossStreetPrimary": "Gilbert",
    "crossStreetSecondary": "McKellips",
    "street": "1908 E McKellips Rd",
    "city": "Mesa",
    "state": "AZ",
    "zip": "85203",
    "timeOpenToday": "2017-12-04T08:00:00",
    "timeCloseToday": "2017-12-04T21:00:00",
    "phoneNumber": "4808275610",
    "currentWaitRangeLow": 39,
    "currentWaitRangeHigh": 54,
    "imageUrl": "https://www.bannerhealth.com/-/media/images/modules/locations/urgent-care/bannerurgentcaremesamckellips.jpg",
    "website": "https://www.bannerhealth.com/locations/mesa/banner-urgent-care-83995"
  },
  {
    "hospitalId": 1655,
    "name": "Banner Urgent Care",
    "latitude": 33.2635906,
    "longitude": -111.7213924,
    "location": {
      "type": "Point",
      "coordinates": [ -111.7213924, 33.2635906 ]
    },
    "crossStreetPrimary": "Higley",
    "crossStreetSecondary": "Queen Creek",
    "street": "3160 E Queen Creek",
    "city": "Gilbert",
    "state": "AZ",
    "zip": "85297",
    "timeOpenToday": "2017-12-04T08:00:00",
    "timeCloseToday": "2017-12-04T21:00:00",
    "phoneNumber": "4808275790",
    "currentWaitRangeLow": 19,
    "currentWaitRangeHigh": 34,
    "imageUrl": "https://www.bannerhealth.com/-/media/images/modules/locations/urgent-care/bannerurgentcaregilberthigleyqueencreek.jpg",
    "website": "https://www.bannerhealth.com/locations/gilbert/banner-urgent-care-6"
  },
  {
    "hospitalId": 1630,
    "name": "Banner Urgent Care",
    "latitude": 33.3348829,
    "longitude": -111.8037737,
    "location": {
      "type": "Point",
      "coordinates": [ -111.8037737, 33.3348829 ]
    },
    "crossStreetPrimary": "Warner",
    "crossStreetSecondary": "Cooper",
    "street": "641 W. Warner Rd",
    "city": "Gilbert",
    "state": "AZ",
    "zip": "85233",
    "timeOpenToday": "2017-12-04T08:00:00",
    "timeCloseToday": "2017-12-04T21:00:00",
    "phoneNumber": "4808275680",
    "currentWaitRangeLow": 19,
    "currentWaitRangeHigh": 34,
    "imageUrl": "https://www.bannerhealth.com/-/media/images/modules/locations/urgent-care/bannerurgentcaregilbertwarner.jpg",
    "website": "https://www.bannerhealth.com/locations/gilbert/banner-urgent-care-9"
  },
  {
    "hospitalId": 1631,
    "name": "Banner Urgent Care",
    "latitude": 33.3500648,
    "longitude": -111.8424653,
    "location": {
      "type": "Point",
      "coordinates": [ -111.8424653, 33.3500648 ]
    },
    "crossStreetPrimary": "Arizona",
    "crossStreetSecondary": "Elliot",
    "street": "3000 N Arizona Ave.",
    "city": "Chandler",
    "state": "AZ",
    "zip": "85225",
    "timeOpenToday": "2017-12-04T08:00:00",
    "timeCloseToday": "2017-12-04T21:00:00",
    "phoneNumber": "4808275660",
    "currentWaitRangeLow": 0,
    "currentWaitRangeHigh": 15,
    "imageUrl": "https://www.bannerhealth.com/-/media/images/modules/locations/urgent-care/bannerurgentcarechandlerarizona.jpg",
    "website": "https://www.bannerhealth.com/locations/chandler/banner-urgent-care-5"
  },
  {
    "hospitalId": 1634,
    "name": "Banner Urgent Care",
    "latitude": 33.3635137,
    "longitude": -111.8759696,
    "location": {
      "type": "Point",
      "coordinates": [ -111.8759696, 33.3635137 ]
    },
    "crossStreetPrimary": "Dobson",
    "crossStreetSecondary": "Guadalupe",
    "street": "1955 W Guadalupe Rd #1",
    "city": "Mesa",
    "state": "AZ",
    "zip": "85202",
    "timeOpenToday": "2017-12-04T08:00:00",
    "timeCloseToday": "2017-12-04T21:00:00",
    "phoneNumber": "4808275620",
    "currentWaitRangeLow": 0,
    "currentWaitRangeHigh": 15,
    "imageUrl": "https://www.bannerhealth.com/-/media/images/modules/locations/urgent-care/bannerurgentcaremesaguadalupe.jpg",
    "website": "https://www.bannerhealth.com/locations/mesa/banner-urgent-care-7"
  },
  {
    "hospitalId": 1654,
    "name": "Banner Urgent Care",
    "latitude": 33.3947566,
    "longitude": -111.9083496,
    "location": {
      "type": "Point",
      "coordinates": [ -111.9083496, 33.3947566 ]
    },
    "crossStreetPrimary": "McClintock",
    "crossStreetSecondary": "Southern",
    "street": "3141 S McClintock Dr. #1",
    "city": "Tempe",
    "state": "AZ",
    "zip": "85282",
    "timeOpenToday": "2017-12-04T08:00:00",
    "timeCloseToday": "2017-12-04T21:00:00",
    "phoneNumber": "4808275650",
    "currentWaitRangeLow": 0,
    "currentWaitRangeHigh": 15,
    "imageUrl": "https://www.bannerhealth.com/-/media/images/modules/locations/urgent-care/bannerurgentcaretempemcclintock.jpg",
    "website": "https://www.bannerhealth.com/locations/tempe/banner-urgent-care-1"
  },
  {
    "hospitalId": 1633,
    "name": "Banner Urgent Care",
    "latitude": 33.2599556,
    "longitude": -111.7901548,
    "location": {
      "type": "Point",
      "coordinates": [ -111.7901548, 33.2599556 ]
    },
    "crossStreetPrimary": "Gilbert",
    "crossStreetSecondary": "Queen Creek",
    "street": "3200 S Gilbert Rd",
    "city": "Chandler",
    "state": "AZ",
    "zip": "85286",
    "timeOpenToday": "2017-12-04T08:00:00",
    "timeCloseToday": "2017-12-04T21:00:00",
    "phoneNumber": "4808275700",
    "currentWaitRangeLow": 73,
    "currentWaitRangeHigh": 88,
    "imageUrl": "https://www.bannerhealth.com/-/media/images/modules/locations/urgent-care/bannerurgentcarechandlergilbert.jpg",
    "website": "https://www.bannerhealth.com/locations/chandler/banner-urgent-care-7"
  },
  {
    "hospitalId": 1649,
    "name": "Banner Urgent Care",
    "latitude": 33.3640173,
    "longitude": -111.9281372,
    "location": {
      "type": "Point",
      "coordinates": [ -111.9281372, 33.3640173 ]
    },
    "crossStreetPrimary": "Rural",
    "crossStreetSecondary": "Guadalupe",
    "street": "6323 S Rural Rd #107",
    "city": "Tempe",
    "state": "AZ",
    "zip": "85282",
    "timeOpenToday": "2017-12-04T08:00:00",
    "timeCloseToday": "2017-12-04T21:00:00",
    "phoneNumber": "4808275630",
    "currentWaitRangeLow": 9,
    "currentWaitRangeHigh": 24,
    "imageUrl": "https://www.bannerhealth.com/-/media/images/modules/locations/urgent-care/bannerurgentcaretemperural.jpg",
    "website": "https://www.bannerhealth.com/locations/tempe/banner-urgent-care-2"
  },
  {
    "hospitalId": 1640,
    "name": "Banner Urgent Care",
    "latitude": 33.2495166,
    "longitude": -111.5626155,
    "location": {
      "type": "Point",
      "coordinates": [ -111.5626155, 33.2495166 ]
    },
    "crossStreetPrimary": "Ironwood",
    "crossStreetSecondary": "Ocotillo",
    "street": "40773 N Ironwood Dr",
    "city": "San Tan Valley",
    "state": "AZ",
    "zip": "85140",
    "timeOpenToday": "2017-12-04T08:00:00",
    "timeCloseToday": "2017-12-04T21:00:00",
    "phoneNumber": "4808275760",
    "currentWaitRangeLow": 10,
    "currentWaitRangeHigh": 25,
    "imageUrl": "https://www.bannerhealth.com/-/media/images/modules/locations/urgent-care/bannerurgentcaresantanironwood.jpg",
    "website": "https://www.bannerhealth.com/locations/san-tan-valley/banner-urgent-care-3"
  },
  {
    "hospitalId": 1635,
    "name": "Banner Urgent Care",
    "latitude": 33.3479138,
    "longitude": -111.9272071,
    "location": {
      "type": "Point",
      "coordinates": [ -111.9272071, 33.3479138 ]
    },
    "crossStreetPrimary": "Rural",
    "crossStreetSecondary": "Elliot",
    "street": "931 E Elliot Rd",
    "city": "Tempe",
    "state": "AZ",
    "zip": "85283",
    "timeOpenToday": "2017-12-04T08:00:00",
    "timeCloseToday": "2017-12-04T21:00:00",
    "phoneNumber": "4808275640",
    "currentWaitRangeLow": 0,
    "currentWaitRangeHigh": 15,
    "imageUrl": "https://www.bannerhealth.com/-/media/images/modules/locations/urgent-care/bannerurgentcaretempeelliot.jpg",
    "website": "https://www.bannerhealth.com/locations/tempe/banner-urgent-care-5"
  },
  {
    "hospitalId": 1639,
    "name": "Banner Urgent Care",
    "latitude": 33.2057178,
    "longitude": -111.5822537,
    "location": {
      "type": "Point",
      "coordinates": [ -111.5822537, 33.2057178 ]
    },
    "crossStreetPrimary": "Gary",
    "crossStreetSecondary": "Empire",
    "street": "35945 N Gary Rd",
    "city": "San Tan Valley",
    "state": "AZ",
    "zip": "85143",
    "timeOpenToday": "2017-12-04T08:00:00",
    "timeCloseToday": "2017-12-04T21:00:00",
    "phoneNumber": "4808275750",
    "currentWaitRangeLow": 0,
    "currentWaitRangeHigh": 15,
    "imageUrl": "https://www.bannerhealth.com/-/media/images/modules/locations/urgent-care/bannerurgentcaresantangary.jpg",
    "website": "https://www.bannerhealth.com/locations/san-tan-valley/banner-urgent-care"
  },
  {
    "hospitalId": 1632,
    "name": "Banner Urgent Care",
    "latitude": 33.2641336,
    "longitude": -111.8588876,
    "location": {
      "type": "Point",
      "coordinates": [ -111.8588876, 33.2641336 ]
    },
    "crossStreetPrimary": "Alma School",
    "crossStreetSecondary": "Queen Creek",
    "street": "2950 S. Alma School  Suite #1",
    "city": "Chandler",
    "state": "AZ",
    "zip": "35386",
    "timeOpenToday": "2017-12-04T08:00:00",
    "timeCloseToday": "2017-12-04T21:00:00",
    "phoneNumber": "4808275690",
    "currentWaitRangeLow": 0,
    "currentWaitRangeHigh": 15,
    "imageUrl": "https://www.bannerhealth.com/-/media/images/modules/locations/urgent-care/bannerurgentcarechandleralmaschool.jpg",
    "website": "https://www.bannerhealth.com/locations/chandler/banner-urgent-care-2"
  },
  {
    "hospitalId": 1629,
    "name": "Banner Urgent Care",
    "latitude": 33.3200008,
    "longitude": -111.8750344,
    "location": {
      "type": "Point",
      "coordinates": [ -111.8750344, 33.3200008 ]
    },
    "crossStreetPrimary": "Dobson",
    "crossStreetSecondary": "Ray",
    "street": "1979 W Ray Rd",
    "city": "Chandler",
    "state": "AZ",
    "zip": "85224",
    "timeOpenToday": "2017-12-04T08:00:00",
    "timeCloseToday": "2017-12-04T21:00:00",
    "phoneNumber": "4808275685",
    "currentWaitRangeLow": 0,
    "currentWaitRangeHigh": 15,
    "imageUrl": "https://www.bannerhealth.com/-/media/images/modules/locations/urgent-care/bannerurgentcarechandlerray.jpg",
    "website": "https://www.bannerhealth.com/locations/chandler/banner-urgent-care"
  },
  {
    "hospitalId": 1661,
    "name": "Banner Urgent Care",
    "latitude": 33.4952075,
    "longitude": -112.0141039,
    "location": {
      "type": "Point",
      "coordinates": [ -112.0141039, 33.4952075 ]
    },
    "crossStreetPrimary": "Indian School",
    "crossStreetSecondary": "32nd St",
    "street": "3141 E Indian School Rd Ste 104",
    "city": "Phoenix",
    "state": "AZ",
    "zip": "85016",
    "timeOpenToday": "2017-12-04T08:00:00",
    "timeCloseToday": "2017-12-04T21:00:00",
    "phoneNumber": "6022557700",
    "currentWaitRangeLow": 0,
    "currentWaitRangeHigh": 15,
    "imageUrl": "https://www.bannerhealth.com/-/media/images/modules/locations/urgent-care/bannerurgentcarephoenixindianschool-32nd-st--indian-school.jpg",
    "website": "https://www.bannerhealth.com/locations/phoenix/banner-urgent-care-84762"
  },
  {
    "hospitalId": 1641,
    "name": "Banner Urgent Care",
    "latitude": 33.5800979,
    "longitude": -111.9266825,
    "location": {
      "type": "Point",
      "coordinates": [ -111.9266825, 33.5800979 ]
    },
    "crossStreetPrimary": "Scottsdale",
    "crossStreetSecondary": "Shea",
    "street": "10330 North Scottsdale Road #25",
    "city": "Scottsdale",
    "state": "AZ",
    "zip": "85253",
    "timeOpenToday": "2017-12-04T08:00:00",
    "timeCloseToday": "2017-12-04T21:00:00",
    "phoneNumber": "6022557625",
    "currentWaitRangeLow": 0,
    "currentWaitRangeHigh": 15,
    "imageUrl": "https://www.bannerhealth.com/-/media/images/modules/locations/urgent-care/bannerurgentcarescottsdalescottsdale.jpg",
    "website": "https://www.bannerhealth.com/locations/scottsdale/banner-urgent-care-1"
  },
  {
    "hospitalId": 1660,
    "name": "Banner Urgent Care",
    "latitude": 33.5098436,
    "longitude": -112.0653142,
    "location": {
      "type": "Point",
      "coordinates": [ -112.0653142, 33.5098436 ]
    },
    "crossStreetPrimary": "7th",
    "crossStreetSecondary": "Camelback",
    "street": "5018 N. 7th St",
    "city": "Phoenix",
    "state": "AZ",
    "zip": "85014",
    "timeOpenToday": "2017-12-04T08:00:00",
    "timeCloseToday": "2017-12-04T21:00:00",
    "phoneNumber": "6022557680",
    "currentWaitRangeLow": 0,
    "currentWaitRangeHigh": 15,
    "imageUrl": "https://www.bannerhealth.com/-/media/images/modules/locations/urgent-care/bannerurgentcare7thandcamelback.jpg",
    "website": "https://www.bannerhealth.com/locations/banner-urgent-care-7"
  },
  {
    "hospitalId": 1642,
    "name": "Banner Urgent Care",
    "latitude": 33.6245789,
    "longitude": -111.9413789,
    "location": {
      "type": "Point",
      "coordinates": [ -111.9413789, 33.6245789 ]
    },
    "crossStreetPrimary": "Greenway",
    "crossStreetSecondary": "64th St",
    "street": "6501 E Greenway Pkwy",
    "city": "Scottsdale",
    "state": "AZ",
    "zip": "85254",
    "timeOpenToday": "2017-12-04T08:00:00",
    "timeCloseToday": "2017-12-04T21:00:00",
    "phoneNumber": "6022557640",
    "currentWaitRangeLow": 29,
    "currentWaitRangeHigh": 44,
    "imageUrl": "https://www.bannerhealth.com/-/media/images/modules/locations/urgent-care/bannerurgentcarescottsdalegreenway.jpg",
    "website": "https://www.bannerhealth.com/locations/scottsdale/banner-urgent-care-2"
  },
  {
    "hospitalId": 1658,
    "name": "Banner Urgent Care",
    "latitude": 33.5686186,
    "longitude": -112.0649072,
    "location": {
      "type": "Point",
      "coordinates": [ -112.0649072, 33.5686186 ]
    },
    "crossStreetPrimary": "Cave Creek",
    "crossStreetSecondary": "7th St",
    "street": "9111 N. 7th St",
    "city": "Phoenix",
    "state": "AZ",
    "zip": "85020",
    "timeOpenToday": "2017-12-04T08:00:00",
    "timeCloseToday": "2017-12-04T21:00:00",
    "phoneNumber": "6022557670",
    "currentWaitRangeLow": 19,
    "currentWaitRangeHigh": 34,
    "imageUrl": "https://www.bannerhealth.com/-/media/images/modules/locations/urgent-care/bannerurgentcarephoenix7th.jpg",
    "website": "https://www.bannerhealth.com/locations/phoenix/banner-urgent-care-84866"
  },
  {
    "hospitalId": 1659,
    "name": "Banner Urgent Care",
    "latitude": 33.5391463,
    "longitude": -112.1002287,
    "location": {
      "type": "Point",
      "coordinates": [ -112.1002287, 33.5391463 ]
    },
    "crossStreetPrimary": "Glendale",
    "crossStreetSecondary": "19th Ave",
    "street": "1940 W Glendale Rd",
    "city": "Phoenix",
    "state": "AZ",
    "zip": "85021",
    "timeOpenToday": "2017-12-04T08:00:00",
    "timeCloseToday": "2017-12-04T21:00:00",
    "phoneNumber": "6022557690",
    "currentWaitRangeLow": 0,
    "currentWaitRangeHigh": 15,
    "imageUrl": "https://www.bannerhealth.com/-/media/images/modules/locations/urgent-care/bannerurgentcareglendale19th.jpg",
    "website": "https://www.bannerhealth.com/locations/banner-urgent-care-9"
  },
  {
    "hospitalId": 1643,
    "name": "Banner Urgent Care",
    "latitude": 33.5522683,
    "longitude": -112.1520429,
    "location": {
      "type": "Point",
      "coordinates": [ -112.1520429, 33.5522683 ]
    },
    "crossStreetPrimary": "Northern",
    "crossStreetSecondary": "43rd Ave",
    "street": "7952 N 43rd Ave",
    "city": "Glendale",
    "state": "AZ",
    "zip": "85301",
    "timeOpenToday": "2017-12-04T08:00:00",
    "timeCloseToday": "2017-12-04T21:00:00",
    "phoneNumber": "6234656330",
    "currentWaitRangeLow": 0,
    "currentWaitRangeHigh": 15,
    "imageUrl": "https://www.bannerhealth.com/-/media/images/modules/locations/urgent-care/bannerurgentcareglendalenorthern.jpg",
    "website": "https://www.bannerhealth.com/locations/glendale/banner-urgent-care-4"
  },
  {
    "hospitalId": 1644,
    "name": "Banner Urgent Care",
    "latitude": 33.640267,
    "longitude": -112.0116375,
    "location": {
      "type": "Point",
      "coordinates": [ -112.0116375, 33.640267 ]
    },
    "crossStreetPrimary": "Bell",
    "crossStreetSecondary": "32nd St",
    "street": "3247 E Bell Rd",
    "city": "Phoenix",
    "state": "AZ",
    "zip": "85032",
    "timeOpenToday": "2017-12-04T08:00:00",
    "timeCloseToday": "2017-12-04T21:00:00",
    "phoneNumber": "6022557655",
    "currentWaitRangeLow": 49,
    "currentWaitRangeHigh": 64,
    "imageUrl": "https://www.bannerhealth.com/-/media/images/modules/locations/urgent-care/bannerurgentcarephoenixbell32nd.jpg",
    "website": "https://www.bannerhealth.com/locations/phoenix/banner-urgent-care"
  },
  {
    "hospitalId": 1645,
    "name": "Banner Urgent Care",
    "latitude": 33.5250161,
    "longitude": -112.2036039,
    "location": {
      "type": "Point",
      "coordinates": [ -112.2036039, 33.5250161 ]
    },
    "crossStreetPrimary": "67th",
    "crossStreetSecondary": "Bethany Home",
    "street": "6702 W. Bethany Home Rd Ste. 13-15",
    "city": "Glendale",
    "state": "AZ",
    "zip": "85303",
    "timeOpenToday": "2017-12-04T08:00:00",
    "timeCloseToday": "2017-12-04T21:00:00",
    "phoneNumber": "6234656345",
    "currentWaitRangeLow": 0,
    "currentWaitRangeHigh": 15,
    "imageUrl": "https://www.bannerhealth.com/-/media/images/modules/locations/urgent-care/bannerurgentcareglendale67thbethany.jpg",
    "website": "https://www.bannerhealth.com/locations/glendale/banner-urgent-care-3"
  },
  {
    "hospitalId": 1665,
    "name": "Banner Urgent Care",
    "latitude": 33.4490378,
    "longitude": -112.3106299,
    "location": {
      "type": "Point",
      "coordinates": [ -112.3106299, 33.4490378 ]
    },
    "crossStreetPrimary": "Van Buren",
    "crossStreetSecondary": "Avondale",
    "street": "11685 W. Van Buren St",
    "city": "Avondale",
    "state": "AZ",
    "zip": "85323",
    "timeOpenToday": "2017-12-04T08:00:00",
    "timeCloseToday": "2017-12-04T21:00:00",
    "phoneNumber": "6234656420",
    "currentWaitRangeLow": 9,
    "currentWaitRangeHigh": 24,
    "imageUrl": "https://www.bannerhealth.com/-/media/images/modules/locations/urgent-care/bannerurgentcareavondalevanburen.jpg",
    "website": "https://www.bannerhealth.com/locations/banner-urgent-care-5"
  },
  {
    "hospitalId": 1667,
    "name": "Banner Urgent Care",
    "latitude": 33.6399383,
    "longitude": -112.1498194,
    "location": {
      "type": "Point",
      "coordinates": [ -112.1498194, 33.6399383 ]
    },
    "crossStreetPrimary": "Bell",
    "crossStreetSecondary": "43rd Ave.",
    "street": "4232 W. Bell Rd.",
    "city": "Glendale",
    "state": "AZ",
    "zip": "35308",
    "timeOpenToday": "2017-12-04T08:00:00",
    "timeCloseToday": "2017-12-04T21:00:00",
    "phoneNumber": "6234656360",
    "currentWaitRangeLow": 0,
    "currentWaitRangeHigh": 15,
    "imageUrl": "https://www.bannerhealth.com/-/media/images/modules/locations/urgent-care/bannerurgentcareglendalebell43rd.jpg",
    "website": "https://www.bannerhealth.com/locations/glendale/banner-urgent-care"
  },
  {
    "hospitalId": 1646,
    "name": "Banner Urgent Care",
    "latitude": 33.5953812,
    "longitude": -112.2227045,
    "location": {
      "type": "Point",
      "coordinates": [ -112.2227045, 33.5953812 ]
    },
    "crossStreetPrimary": "Cactus",
    "crossStreetSecondary": "75th Ave",
    "street": "7611 W. Cactus Rd.",
    "city": "Peoria",
    "state": "AZ",
    "zip": "85381",
    "timeOpenToday": "2017-12-04T08:00:00",
    "timeCloseToday": "2017-12-04T21:00:00",
    "phoneNumber": "6234656315",
    "currentWaitRangeLow": 29,
    "currentWaitRangeHigh": 44,
    "imageUrl": "https://www.bannerhealth.com/-/media/images/modules/locations/urgent-care/bannerurgentcarepeoriacactus.jpg",
    "website": "https://www.bannerhealth.com/locations/peoria/banner-urgent-care-3"
  },
  {
    "hospitalId": 1647,
    "name": "Banner Urgent Care",
    "latitude": 33.4848521,
    "longitude": -112.3630512,
    "location": {
      "type": "Point",
      "coordinates": [ -112.3630512, 33.4848521 ]
    },
    "crossStreetPrimary": "Litchfield",
    "crossStreetSecondary": "Indian School",
    "street": "3328 N. Litchfield Rd",
    "city": "Goodyear",
    "state": "AZ",
    "zip": "85395",
    "timeOpenToday": "2017-12-04T08:00:00",
    "timeCloseToday": "2017-12-04T21:00:00",
    "phoneNumber": "6234656300",
    "currentWaitRangeLow": 0,
    "currentWaitRangeHigh": 15,
    "imageUrl": "https://www.bannerhealth.com/-/media/images/modules/locations/urgent-care/bannerurgentcaregoodyearlitchfield.jpg",
    "website": "https://www.bannerhealth.com/locations/goodyear/banner-urgent-care-1"
  },
  {
    "hospitalId": 1664,
    "name": "Banner Urgent Care",
    "latitude": 33.435632,
    "longitude": -112.4122184,
    "location": {
      "type": "Point",
      "coordinates": [ -112.4122184, 33.435632 ]
    },
    "crossStreetPrimary": "Sarival",
    "crossStreetSecondary": "Yuma",
    "street": "16430 W Yuma Rd",
    "city": "Goodyear",
    "state": "AZ",
    "zip": "85338",
    "timeOpenToday": "2017-12-04T08:00:00",
    "timeCloseToday": "2017-12-04T21:00:00",
    "phoneNumber": "6234656405",
    "currentWaitRangeLow": 0,
    "currentWaitRangeHigh": 15,
    "imageUrl": "https://www.bannerhealth.com/-/media/images/modules/locations/urgent-care/bannerurgentcaregoodyearrural.jpg",
    "website": "https://www.bannerhealth.com/locations/goodyear/banner-urgent-care-83525"
  },
  {
    "hospitalId": 1648,
    "name": "Banner Urgent Care",
    "latitude": 33.683306,
    "longitude": -112.2384294,
    "location": {
      "type": "Point",
      "coordinates": [ -112.2384294, 33.683306 ]
    },
    "crossStreetPrimary": "Deer Valley",
    "crossStreetSecondary": "83rd Rd",
    "street": "21980 N 83rd Ave",
    "city": "Peoria",
    "state": "AZ",
    "zip": "85382",
    "timeOpenToday": "2017-12-04T08:00:00",
    "timeCloseToday": "2017-12-04T21:00:00",
    "phoneNumber": "6234656375",
    "currentWaitRangeLow": 109,
    "currentWaitRangeHigh": 124,
    "imageUrl": "https://www.bannerhealth.com/-/media/images/modules/locations/urgent-care/bannerurgentcarepeoria83rd.jpg",
    "website": "https://www.bannerhealth.com/locations/peoria/banner-urgent-care"
  },
  {
    "hospitalId": 1657,
    "name": "Banner Urgent Care",
    "latitude": 33.6597534,
    "longitude": -112.3599103,
    "location": {
      "type": "Point",
      "coordinates": [ -112.3599103, 33.6597534 ]
    },
    "crossStreetPrimary": "Johnson",
    "crossStreetSecondary": "Meeker",
    "street": "13901 W. Meeker Blvd.",
    "city": "Sun City West",
    "state": "AZ",
    "zip": "85375",
    "timeOpenToday": "2017-12-04T08:00:00",
    "timeCloseToday": "2017-12-04T21:00:00",
    "phoneNumber": "6234656435",
    "currentWaitRangeLow": 0,
    "currentWaitRangeHigh": 15,
    "imageUrl": "https://www.bannerhealth.com/-/media/images/modules/locations/urgent-care/bannerurgentcaresuncitymeeker.jpg",
    "website": "https://www.bannerhealth.com/locations/banner-urgent-care-6"
  },
  {
    "hospitalId": 1960,
    "name": "Banner Urgent Care",
    "latitude": 32.8845836,
    "longitude": -111.7148442,
    "location": {
      "type": "Point",
      "coordinates": [ -111.7148442, 32.8845836 ]
    },
    "crossStreetPrimary": "Casa",
    "crossStreetSecondary": "Casa Grande",
    "street": "1676 E McMurray Blvd #1",
    "city": "Casa Grande",
    "state": "AZ",
    "zip": "85122",
    "timeOpenToday": "2017-12-04T08:00:00",
    "timeCloseToday": "2017-12-04T21:00:00",
    "phoneNumber": "5203160688",
    "currentWaitRangeLow": 153,
    "currentWaitRangeHigh": 168,
    "imageUrl": "https://www.bannerhealth.com/-/media/images/modules/locations/buildingavatar478x318.jpg",
    "website": "https://www.bannerhealth.com/locations/casa-grande/banner-casa-grande-urgent-care"
  },
  {
    "hospitalId": 1656,
    "name": "Banner Urgent Care",
    "latitude": 33.6376264,
    "longitude": -112.3945633,
    "location": {
      "type": "Point",
      "coordinates": [ -112.3945633, 33.6376264 ]
    },
    "crossStreetPrimary": "Bell",
    "crossStreetSecondary": "Reems",
    "street": "15521 W. Bell Rd",
    "city": "Surprise",
    "state": "AZ",
    "zip": "85374",
    "timeOpenToday": "2017-12-04T08:00:00",
    "timeCloseToday": "2017-12-04T21:00:00",
    "phoneNumber": "6234656390",
    "currentWaitRangeLow": 19,
    "currentWaitRangeHigh": 34,
    "imageUrl": "https://www.bannerhealth.com/-/media/images/modules/locations/urgent-care/bannerurgentcaresurprisebell.jpg",
    "website": "https://www.bannerhealth.com/locations/surprise/banner-urgent-care-1"
  },
  {
    "hospitalId": 1671,
    "name": "Banner Urgent Care",
    "latitude": 32.3164098,
    "longitude": -110.9770431,
    "location": {
      "type": "Point",
      "coordinates": [ -110.9770431, 32.3164098 ]
    },
    "crossStreetPrimary": "Oracle",
    "crossStreetSecondary": "Rudasail",
    "street": "6021 N Oracle Rd Ste 107",
    "city": "Tucson",
    "state": "AZ",
    "zip": "85704",
    "timeOpenToday": "2017-12-04T08:00:00",
    "timeCloseToday": "2017-12-04T21:00:00",
    "phoneNumber": "5206946550",
    "currentWaitRangeLow": 0,
    "currentWaitRangeHigh": 15,
    "imageUrl": "https://www.bannerhealth.com/-/media/images/modules/locations/urgent-care/bannerurgentcaretucsonoracle.jpg",
    "website": "https://www.bannerhealth.com/locations/banner-urgent-care-2"
  },
  {
    "hospitalId": 1670,
    "name": "Banner Urgent Care",
    "latitude": 32.3360004,
    "longitude": -111.0473939,
    "location": {
      "type": "Point",
      "coordinates": [ -111.0473939, 32.3360004 ]
    },
    "crossStreetPrimary": "Ina",
    "crossStreetSecondary": "Thornydale",
    "street": "7089 N Thornydale Ste 101",
    "city": "Tucson",
    "state": "AZ",
    "zip": "85658",
    "timeOpenToday": "2017-12-04T08:00:00",
    "timeCloseToday": "2017-12-04T21:00:00",
    "phoneNumber": "5206946600",
    "currentWaitRangeLow": 0,
    "currentWaitRangeHigh": 15,
    "imageUrl": "https://www.bannerhealth.com/-/media/images/modules/locations/urgent-care/bannerurgentcaretucsonthornydale.jpg",
    "website": "https://www.bannerhealth.com/locations/banner-urgent-care-4"
  },
  {
    "hospitalId": 1666,
    "name": "Banner Urgent Care",
    "latitude": 32.2727145,
    "longitude": -110.9443945,
    "location": {
      "type": "Point",
      "coordinates": [ -110.9443945, 32.2727145 ]
    },
    "crossStreetPrimary": "Prince",
    "crossStreetSecondary": "Campbell",
    "street": "3611 N Campbell Ave",
    "city": "Tucson",
    "state": "AZ",
    "zip": "85719",
    "timeOpenToday": "2017-12-04T08:00:00",
    "timeCloseToday": "2017-12-04T21:00:00",
    "phoneNumber": "5206944650",
    "currentWaitRangeLow": 19,
    "currentWaitRangeHigh": 34,
    "imageUrl": "https://www.bannerhealth.com/-/media/images/modules/locations/urgent-care/bannerurgentcaretucsoncampbell.jpg",
    "website": "https://www.bannerhealth.com/locations/tucson/banner-urgent-care-3"
  },
  {
    "hospitalId": 1668,
    "name": "Banner Urgent Care",
    "latitude": 32.2219894,
    "longitude": -110.8745072,
    "location": {
      "type": "Point",
      "coordinates": [ -110.8745072, 32.2219894 ]
    },
    "crossStreetPrimary": "Broadway",
    "crossStreetSecondary": "Craycroft",
    "street": "5545 E Broadway Blvd Ste 101",
    "city": "Tucson",
    "state": "AZ",
    "zip": "85711",
    "timeOpenToday": "2017-12-04T08:00:00",
    "timeCloseToday": "2017-12-04T21:00:00",
    "phoneNumber": "5206944920",
    "currentWaitRangeLow": 40,
    "currentWaitRangeHigh": 55,
    "imageUrl": "https://www.bannerhealth.com/-/media/images/modules/locations/urgent-care/bannerurgentcaretucsonbroadway.jpg",
    "website": "https://www.bannerhealth.com/locations/tucson/banner-urgent-care-5"
  },
  {
    "hospitalId": 1669,
    "name": "Banner Urgent Care",
    "latitude": 32.1911682,
    "longitude": -110.8416961,
    "location": {
      "type": "Point",
      "coordinates": [ -110.8416961, 32.1911682 ]
    },
    "crossStreetPrimary": "Golf Links",
    "crossStreetSecondary": "Kolb",
    "street": "7066 E Golf Links Rd",
    "city": "Tucson",
    "state": "AZ",
    "zip": "85730",
    "timeOpenToday": "2017-12-04T08:00:00",
    "timeCloseToday": "2017-12-04T21:00:00",
    "phoneNumber": "5206946420",
    "currentWaitRangeLow": 79,
    "currentWaitRangeHigh": 94,
    "imageUrl": "https://www.bannerhealth.com/-/media/images/modules/locations/urgent-care/bannerurgentcaretucsongolflinks.jpg",
    "website": "https://www.bannerhealth.com/locations/tucson/banner-urgent-care-6"
  }
]